{
"type": "FeatureCollection",
"name": "ARSW_5AD",
"crs": { "type": "name", "properties": { "name": "urn:ogc:def:crs:OGC:1.3:CRS84" } },
"features": [
{ "type": "Feature", "properties": { "label": "Sousse", "count": 1.0, "lat": 35.824111111111101, "lng": 10.6372777777778 }, "geometry": { "type": "Point", "coordinates": [ 10.6372777777778, 35.824111111111101 ] } },
{ "type": "Feature", "properties": { "label": "Southern Sinai", "count": 2.0, "lat": 28.219555555555601, "lng": 34.089 }, "geometry": { "type": "Point", "coordinates": [ 34.089, 28.219555555555601 ] } },
{ "type": "Feature", "properties": { "label": "Sperlonga", "count": 325.0, "lat": 41.251055555555602, "lng": 13.44975 }, "geometry": { "type": "Point", "coordinates": [ 13.44975, 41.251055555555602 ] } },
{ "type": "Feature", "properties": { "label": "Sremska Mitrovica", "count": 2.0, "lat": 44.966138888888899, "lng": 19.610805555555601 }, "geometry": { "type": "Point", "coordinates": [ 19.610805555555601, 44.966138888888899 ] } },
{ "type": "Feature", "properties": { "label": "Surduk", "count": 1.0, "lat": 45.07275, "lng": 20.326055555555602 }, "geometry": { "type": "Point", "coordinates": [ 20.326055555555602, 45.07275 ] } },
{ "type": "Feature", "properties": { "label": "Szony", "count": 1.0, "lat": 47.735666666666702, "lng": 18.156472222222199 }, "geometry": { "type": "Point", "coordinates": [ 18.156472222222199, 47.735666666666702 ] } },
{ "type": "Feature", "properties": { "label": "Tamuda", "count": 1.0, "lat": 35.559222222222203, "lng": -4.5890555555555599 }, "geometry": { "type": "Point", "coordinates": [ -4.58905555555556, 35.559222222222203 ] } },
{ "type": "Feature", "properties": { "label": "Tarragona", "count": 267.0, "lat": 41.115333333333297, "lng": 1.2580833333333299 }, "geometry": { "type": "Point", "coordinates": [ 1.25808333333333, 41.115333333333297 ] } },
{ "type": "Feature", "properties": { "label": "Tipaza", "count": 4.0, "lat": 36.594805555555602, "lng": 2.44380555555556 }, "geometry": { "type": "Point", "coordinates": [ 2.44380555555556, 36.594805555555602 ] } },
{ "type": "Feature", "properties": { "label": "Tiszaföldvár", "count": 1.0, "lat": 46.965083333333297, "lng": 20.247722222222201 }, "geometry": { "type": "Point", "coordinates": [ 20.247722222222201, 46.965083333333297 ] } },
{ "type": "Feature", "properties": { "label": "Tocra", "count": 3.0, "lat": 32.5365, "lng": 20.568166666666698 }, "geometry": { "type": "Point", "coordinates": [ 20.568166666666698, 32.5365 ] } },
{ "type": "Feature", "properties": { "label": "Tolmeitha", "count": 2.0, "lat": 32.708277777777802, "lng": 20.952305555555601 }, "geometry": { "type": "Point", "coordinates": [ 20.952305555555601, 32.708277777777802 ] } },
{ "type": "Feature", "properties": { "label": "Toulon", "count": 31.0, "lat": 43.127555555555602, "lng": 5.9265555555555602 }, "geometry": { "type": "Point", "coordinates": [ 5.92655555555556, 43.127555555555602 ] } },
{ "type": "Feature", "properties": { "label": "Uthina", "count": 13.0, "lat": 36.608416666666699, "lng": 10.172027777777799 }, "geometry": { "type": "Point", "coordinates": [ 10.172027777777799, 36.608416666666699 ] } },
{ "type": "Feature", "properties": { "label": "Valencia", "count": 70.0, "lat": 39.4745833333333, "lng": 0.37711111111111101 }, "geometry": { "type": "Point", "coordinates": [ 0.377111111111111, 39.4745833333333 ] } },
{ "type": "Feature", "properties": { "label": "Vila Fernando", "count": 1.0, "lat": 38.916055555555502, "lng": -6.6825555555555596 }, "geometry": { "type": "Point", "coordinates": [ -6.68255555555556, 38.916055555555502 ] } },
{ "type": "Feature", "properties": { "label": "Vindobona", "count": 6.0, "lat": 48.207972222222203, "lng": 16.3666388888889 }, "geometry": { "type": "Point", "coordinates": [ 16.3666388888889, 48.207972222222203 ] } },
{ "type": "Feature", "properties": { "label": "Zeugma", "count": 63.0, "lat": 37.057805555555603, "lng": 37.8696388888889 }, "geometry": { "type": "Point", "coordinates": [ 37.8696388888889, 37.057805555555603 ] } },
{ "type": "Feature", "properties": { "label": "Abdera", "count": 1.0, "lat": 40.980916666666701, "lng": 24.951722222222202 }, "geometry": { "type": "Point", "coordinates": [ 24.951722222222202, 40.980916666666701 ] } },
{ "type": "Feature", "properties": { "label": "Adulis", "count": 1.0, "lat": 15.2711111111111, "lng": 39.682722222222203 }, "geometry": { "type": "Point", "coordinates": [ 39.682722222222203, 15.2711111111111 ] } },
{ "type": "Feature", "properties": { "label": "Aetolia", "count": 2.0, "lat": 38.571833333333302, "lng": 21.672416666666699 }, "geometry": { "type": "Point", "coordinates": [ 21.672416666666699, 38.571833333333302 ] } },
{ "type": "Feature", "properties": { "label": "Aguntum", "count": 1.0, "lat": 46.8235555555556, "lng": 12.836777777777799 }, "geometry": { "type": "Point", "coordinates": [ 12.836777777777799, 46.8235555555556 ] } },
{ "type": "Feature", "properties": { "label": "Alahan", "count": 4.0, "lat": 36.7911111111111, "lng": 33.351472222222199 }, "geometry": { "type": "Point", "coordinates": [ 33.351472222222199, 36.7911111111111 ] } },
{ "type": "Feature", "properties": { "label": "Alcúdia", "count": 62.0, "lat": 39.850972222222197, "lng": 3.1181111111111099 }, "geometry": { "type": "Point", "coordinates": [ 3.11811111111111, 39.850972222222197 ] } },
{ "type": "Feature", "properties": { "label": "Apollonia (Libya)", "count": 2.0, "lat": 32.901888888888898, "lng": 21.969805555555599 }, "geometry": { "type": "Point", "coordinates": [ 21.969805555555599, 32.901888888888898 ] } },
{ "type": "Feature", "properties": { "label": "Aquincum", "count": 1.0, "lat": 47.564, "lng": 19.0495555555556 }, "geometry": { "type": "Point", "coordinates": [ 19.0495555555556, 47.564 ] } },
{ "type": "Feature", "properties": { "label": "Barcelona", "count": 1.0, "lat": 41.3845555555556, "lng": 2.17225 }, "geometry": { "type": "Point", "coordinates": [ 2.17225, 41.3845555555556 ] } },
{ "type": "Feature", "properties": { "label": "Capua", "count": 7.0, "lat": 41.109888888888896, "lng": 14.2105 }, "geometry": { "type": "Point", "coordinates": [ 14.2105, 41.109888888888896 ] } },
{ "type": "Feature", "properties": { "label": "Carnuntum", "count": 8.0, "lat": 48.115972222222197, "lng": 16.855972222222199 }, "geometry": { "type": "Point", "coordinates": [ 16.855972222222199, 48.115972222222197 ] } },
{ "type": "Feature", "properties": { "label": "Cherchell", "count": 205.0, "lat": 36.607388888888899, "lng": 2.18686111111111 }, "geometry": { "type": "Point", "coordinates": [ 2.18686111111111, 36.607388888888899 ] } },
{ "type": "Feature", "properties": { "label": "Cimiez. Nice", "count": 1.0, "lat": 43.713138888888899, "lng": 7.2724444444444396 }, "geometry": { "type": "Point", "coordinates": [ 7.27244444444444, 43.713138888888899 ] } },
{ "type": "Feature", "properties": { "label": "Djémila", "count": 3.0, "lat": 36.321194444444501, "lng": 5.7360277777777799 }, "geometry": { "type": "Point", "coordinates": [ 5.73602777777778, 36.321194444444501 ] } },
{ "type": "Feature", "properties": { "label": "El-Haditha", "count": 2.0, "lat": 31.291138888888899, "lng": 35.538777777777803 }, "geometry": { "type": "Point", "coordinates": [ 35.538777777777803, 31.291138888888899 ] } },
{ "type": "Feature", "properties": { "label": "Ezinge", "count": 25.0, "lat": 53.311388888888899, "lng": 6.4391388888888903 }, "geometry": { "type": "Point", "coordinates": [ 6.43913888888889, 53.311388888888899 ] } },
{ "type": "Feature", "properties": { "label": "Floridia", "count": 1.0, "lat": 37.082888888888903, "lng": 15.159194444444401 }, "geometry": { "type": "Point", "coordinates": [ 15.159194444444401, 37.082888888888903 ] } },
{ "type": "Feature", "properties": { "label": "Fornells", "count": 7.0, "lat": 40.061388888888899, "lng": 4.1306388888888899 }, "geometry": { "type": "Point", "coordinates": [ 4.13063888888889, 40.061388888888899 ] } },
{ "type": "Feature", "properties": { "label": "Gijón", "count": 1.0, "lat": 43.545777777777801, "lng": -4.3368888888888897 }, "geometry": { "type": "Point", "coordinates": [ -4.33688888888889, 43.545777777777801 ] } },
{ "type": "Feature", "properties": { "label": "Halabiyya", "count": 1.0, "lat": 35.674444444444397, "lng": 39.8258333333333 }, "geometry": { "type": "Point", "coordinates": [ 39.8258333333333, 35.674444444444397 ] } },
{ "type": "Feature", "properties": { "label": "Hemopolis Magna", "count": 1.0, "lat": 27.7814444444444, "lng": 30.803416666666699 }, "geometry": { "type": "Point", "coordinates": [ 30.803416666666699, 27.7814444444444 ] } },
{ "type": "Feature", "properties": { "label": "Henchir El Gallal. Chougagiya", "count": 6.0, "lat": 35.775305555555597, "lng": 9.8806388888888907 }, "geometry": { "type": "Point", "coordinates": [ 9.880638888888891, 35.775305555555597 ] } },
{ "type": "Feature", "properties": { "label": "Henchir El Guellal. Djilma", "count": 24.0, "lat": 35.271611111111099, "lng": 9.5356666666666694 }, "geometry": { "type": "Point", "coordinates": [ 9.535666666666669, 35.271611111111099 ] } },
{ "type": "Feature", "properties": { "label": "Henchir El Guellal. Madje", "count": 7.0, "lat": 35.308361111111097, "lng": 9.2193333333333296 }, "geometry": { "type": "Point", "coordinates": [ 9.21933333333333, 35.308361111111097 ] } },
{ "type": "Feature", "properties": { "label": "Henchir El Guellel. Sidi Saad", "count": 4.0, "lat": 35.3865277777778, "lng": 9.75705555555556 }, "geometry": { "type": "Point", "coordinates": [ 9.75705555555556, 35.3865277777778 ] } },
{ "type": "Feature", "properties": { "label": "Henchir Es Srira", "count": 8.0, "lat": 35.265, "lng": 8.9725277777777794 }, "geometry": { "type": "Point", "coordinates": [ 8.972527777777779, 35.265 ] } },
{ "type": "Feature", "properties": { "label": "Henchir Es Srira", "count": 30.0, "lat": 35.457583333333297, "lng": 9.3866388888888892 }, "geometry": { "type": "Point", "coordinates": [ 9.386638888888889, 35.457583333333297 ] } },
{ "type": "Feature", "properties": { "label": "Hippo Regius", "count": 2.0, "lat": 36.8833611111111, "lng": 7.7506944444444397 }, "geometry": { "type": "Point", "coordinates": [ 7.75069444444444, 36.8833611111111 ] } },
{ "type": "Feature", "properties": { "label": "Ihnasya", "count": 1.0, "lat": 29.089972222222201, "lng": 30.938583333333298 }, "geometry": { "type": "Point", "coordinates": [ 30.938583333333298, 29.089972222222201 ] } },
{ "type": "Feature", "properties": { "label": "Iraq al-Amir", "count": 1.0, "lat": 31.9245, "lng": 35.7615 }, "geometry": { "type": "Point", "coordinates": [ 35.7615, 31.9245 ] } },
{ "type": "Feature", "properties": { "label": "Ithaki", "count": 1.0, "lat": 38.426333333333297, "lng": 20.677527777777801 }, "geometry": { "type": "Point", "coordinates": [ 20.677527777777801, 38.426333333333297 ] } },
{ "type": "Feature", "properties": { "label": "La Alcudia", "count": 33.0, "lat": 39.198027777777803, "lng": 0.50675 }, "geometry": { "type": "Point", "coordinates": [ 0.50675, 39.198027777777803 ] } },
{ "type": "Feature", "properties": { "label": "Lechaio", "count": 2.0, "lat": 37.935138888888901, "lng": 22.844194444444401 }, "geometry": { "type": "Point", "coordinates": [ 22.844194444444401, 37.935138888888901 ] } },
{ "type": "Feature", "properties": { "label": "Leptis Magna", "count": 13.0, "lat": 32.637722222222202, "lng": 14.2921944444444 }, "geometry": { "type": "Point", "coordinates": [ 14.2921944444444, 32.637722222222202 ] } },
{ "type": "Feature", "properties": { "label": "Luni", "count": 87.0, "lat": 44.059888888888899, "lng": 10.006166666666701 }, "geometry": { "type": "Point", "coordinates": [ 10.006166666666701, 44.059888888888899 ] } },
{ "type": "Feature", "properties": { "label": "Nepi", "count": 2.0, "lat": 42.2405277777778, "lng": 12.340722222222199 }, "geometry": { "type": "Point", "coordinates": [ 12.340722222222199, 42.2405277777778 ] } },
{ "type": "Feature", "properties": { "label": "Oberlaa", "count": 1.0, "lat": 48.137111111111103, "lng": 16.40425 }, "geometry": { "type": "Point", "coordinates": [ 16.40425, 48.137111111111103 ] } },
{ "type": "Feature", "properties": { "label": "Olympia", "count": 3.0, "lat": 37.637305555555599, "lng": 21.629472222222201 }, "geometry": { "type": "Point", "coordinates": [ 21.629472222222201, 37.637305555555599 ] } },
{ "type": "Feature", "properties": { "label": "Paphos", "count": 7.0, "lat": 34.761277777777799, "lng": 32.408055555555599 }, "geometry": { "type": "Point", "coordinates": [ 32.408055555555599, 34.761277777777799 ] } },
{ "type": "Feature", "properties": { "label": "Páty", "count": 1.0, "lat": 47.5158611111111, "lng": 18.828944444444399 }, "geometry": { "type": "Point", "coordinates": [ 18.828944444444399, 47.5158611111111 ] } },
{ "type": "Feature", "properties": { "label": "Phlius", "count": 1.0, "lat": 37.844638888888902, "lng": 22.646555555555601 }, "geometry": { "type": "Point", "coordinates": [ 22.646555555555601, 37.844638888888902 ] } },
{ "type": "Feature", "properties": { "label": "Porsuk", "count": 1.0, "lat": 37.536666666666697, "lng": 34.567416666666702 }, "geometry": { "type": "Point", "coordinates": [ 34.567416666666702, 37.536666666666697 ] } },
{ "type": "Feature", "properties": { "label": "Porto Torres", "count": 285.0, "lat": 40.837555555555603, "lng": 8.3944722222222197 }, "geometry": { "type": "Point", "coordinates": [ 8.39447222222222, 40.837555555555603 ] } },
{ "type": "Feature", "properties": { "label": "Predjama", "count": 2.0, "lat": 45.815055555555602, "lng": 14.1290277777778 }, "geometry": { "type": "Point", "coordinates": [ 14.1290277777778, 45.815055555555602 ] } },
{ "type": "Feature", "properties": { "label": "Rabat", "count": 1.0, "lat": 35.885388888888897, "lng": 14.400083333333299 }, "geometry": { "type": "Point", "coordinates": [ 14.400083333333299, 35.885388888888897 ] } },
{ "type": "Feature", "properties": { "label": "Ramat Rachel", "count": 2.0, "lat": 31.739805555555598, "lng": 35.216722222222202 }, "geometry": { "type": "Point", "coordinates": [ 35.216722222222202, 31.739805555555598 ] } },
{ "type": "Feature", "properties": { "label": "Rome. San Sisto Vecchio", "count": 19.0, "lat": 41.8805277777778, "lng": 12.496 }, "geometry": { "type": "Point", "coordinates": [ 12.496, 41.8805277777778 ] } },
{ "type": "Feature", "properties": { "label": "Rome. Santa Prisca", "count": 1.0, "lat": 41.8829722222222, "lng": 12.4837222222222 }, "geometry": { "type": "Point", "coordinates": [ 12.4837222222222, 41.8829722222222 ] } },
{ "type": "Feature", "properties": { "label": "Sagunto", "count": 10.0, "lat": 39.676166666666703, "lng": 0.27927777777777801 }, "geometry": { "type": "Point", "coordinates": [ 0.279277777777778, 39.676166666666703 ] } },
{ "type": "Feature", "properties": { "label": "Salona", "count": 1.0, "lat": 43.539416666666703, "lng": 16.483361111111101 }, "geometry": { "type": "Point", "coordinates": [ 16.483361111111101, 43.539416666666703 ] } },
{ "type": "Feature", "properties": { "label": "Samos", "count": 2.0, "lat": 37.754222222222197, "lng": 26.9782222222222 }, "geometry": { "type": "Point", "coordinates": [ 26.9782222222222, 37.754222222222197 ] } },
{ "type": "Feature", "properties": { "label": "Sa'neh", "count": 2.0, "lat": 32.686416666666702, "lng": 36.871333333333297 }, "geometry": { "type": "Point", "coordinates": [ 36.871333333333297, 32.686416666666702 ] } },
{ "type": "Feature", "properties": { "label": "Santa Pola", "count": 94.0, "lat": 38.195166666666701, "lng": 0.56105555555555597 }, "geometry": { "type": "Point", "coordinates": [ 0.561055555555556, 38.195166666666701 ] } },
{ "type": "Feature", "properties": { "label": "Saraceno", "count": 10.0, "lat": 37.328472222222203, "lng": 13.646416666666701 }, "geometry": { "type": "Point", "coordinates": [ 13.646416666666701, 37.328472222222203 ] } },
{ "type": "Feature", "properties": { "label": "Sbeitla", "count": 2.0, "lat": 35.239944444444397, "lng": 9.12008333333333 }, "geometry": { "type": "Point", "coordinates": [ 9.12008333333333, 35.239944444444397 ] } },
{ "type": "Feature", "properties": { "label": "Sétif", "count": 3.0, "lat": 36.192277777777797, "lng": 5.4040555555555603 }, "geometry": { "type": "Point", "coordinates": [ 5.40405555555556, 36.192277777777797 ] } },
{ "type": "Feature", "properties": { "label": "Sidi Marzouk Tounsi", "count": 50.0, "lat": 35.614138888888903, "lng": 9.5086666666666702 }, "geometry": { "type": "Point", "coordinates": [ 9.50866666666667, 35.614138888888903 ] } },
{ "type": "Feature", "properties": { "label": "Sisak", "count": 6.0, "lat": 45.484111111111098, "lng": 16.3720833333333 }, "geometry": { "type": "Point", "coordinates": [ 16.3720833333333, 45.484111111111098 ] } }
]
}
